Time,F-Scale,Location,County,State,Lat,Lon,Comments
1801,UNK,10 WSW UNF,DUVAL,FL,30.22,-81.67,A TORNADO WAS OBSERVED BRIEFLY FROM THE FIFTH FLOOR OF AN OFFICE BUILDING AT INTERSECTION OF I-95 AND JTB BLVD. (JAX)
2331,UNK,3 W ORIENTA,MAJOR,OK,36.36,-98.53,LOCATION APPROXIMATE. TORNADO BEGAN AROUND 631 PM AND ENDED AROUND 633 PM IN OPEN COUNTRY. (OUN)
2342,UNK,3 W ORIENTA,MAJOR,OK,36.36,-98.53,LOCATION APPROXIMATE. TORNADO BEGAN AROUND 642 PM ALONG AND JUST SOUTH OF HIGHWAY 412,APPARENTLY REMAINING OVER OPEN COUNTRY AND ENDING AROUND 644 PM. (OUN)
0036,UNK,6 SW ORIENTA,MAJOR,OK,36.3,-98.55,LOCATION APPROXIMATE. TORNADO LASTED ONLY ABOUT ONE MINUTE. (OUN)
0045,UNK,6 SW ORIENTA,MAJOR,OK,36.3,-98.55,LOCATION APPROXIMATE. TORNADO ONLY LASTED ABOUT ONE MINUTE. (OUN)
Time,Speed,Location,County,State,Lat,Lon,Comments
1630,UNK,1 SW SKI GAP,BLAIR,PA,40.31,-78.53,TREES AND WIRES DOWN IN BIG LICK BRANCH TOWNSHIP. (CTP)
1645,UNK,W HIGHSPIRE,DAUPHIN,PA,40.21,-76.79,NUMEROUS TREES AND WIRES DOWN IN BUSER RUN 0.5 MILES WEST OF HIGHSPIRE. (CTP)
1710,UNK,1 W CALLAHAN,NASSAU,FL,30.56,-81.85,TREE LIMBS DOWN ON POWERLINE ALONG COUNTY ROAD 108. (JAX)
1745,UNK,JACKSONVILLE HEIGHTS,DUVAL,FL,30.25,-81.79,TREE UPROOTED AT SEABOARD AND 118TH STREET...NEAR TIMUQUANA AND ORTEGA BRIDGE. (JAX)
1750,UNK,6 SE MANGUM,RICHMOND,NC,35.08,-79.9,SEVERAL TREES DOWN BLOCKING ROADS IN THE GRASSY ISLAND AREA NEAR BLEWETT FALLS LAKE. (RAH)
1800,UNK,3 NE SALT SPRINGS,PUTNAM,FL,29.38,-81.7,WILLOW TREE DOWN NEAR HIGHWAY 19...JUST EAST OF LAKE DELANCY. (JAX)
1800,73,NORMANDY,DUVAL,FL,30.31,-81.76,(JAX)
1804,UNK,LAUREL BAY,BEAUFORT,SC,32.45,-80.79,4 LARGE TREES DOWN ALONG THE BROAD RIVER. (CHS)
1805,UNK,1 SE SALT SPRINGS,MARION,FL,29.34,-81.72,PINE TREE ACROSS NATIONAL FOREST ROAD 65 NEAR HIGHWAY 19. INFORMATION PROVIDED BY POSTAL CARRIER. (JAX)
1805,UNK,8 N MORVEN,ANSON,NC,34.98,-80,SEVERAL TREES DOWN BLOCKING ROADS. (RAH)
1805,UNK,GERRY,CHAUTAUQUA,NY,42.19,-79.25,TREES AND POWER LINES DOWN (BUF)
1815,UNK,JOHNSONBURG,ELK,PA,41.49,-78.68,TREE DOWN ON MAIN ST. (CTP)
1823,UNK,6 E RIDGELAND,JASPER,SC,32.48,-80.88,PUBLIC REPORTED A LARGE TREE LIMB DOWN AT THE OLD HOUSE SMOKE HOUSE RESTAURANT NEAR THE CORNER OF 336 AND 462. (CHS)
1827,UNK,BENNETTS POINT,COLLETON,SC,32.56,-80.45,LARGE BRANCHES DOWN NEAR THE SHRIMP DOCKS. (CHS)
1828,UNK,GREENVILLE,MERCER,PA,41.41,-80.38,TREES AND POWER LINES DOWN. (PBZ)
1845,UNK,WHITE OAK,MONTGOMERY,MD,39.04,-76.99,DOWNED TREE ON NEW HAMPSHIRE AVENUE. (LWX)
1900,UNK,11 NNE MELROSE,CLAY,FL,29.85,-81.96,LARGE TREE LIMBS DOWN IN GOLD HEAD BRANCH STATE PARK. TIME IS APPROX. (JAX)
1908,UNK,LEAGUE CITY,GALVESTON,TX,29.49,-95.11,TREE DOWN ON HOUSE/POWER LINE NEAR TEXAS 96 BETWEEN TEXAS 3 AND IH-45 (HGX)
1914,UNK,MIDDLEBURG,SNYDER,PA,40.79,-77.05,TREES DOWN (CTP)
1922,UNK,YOUNGSTOWN,MAHONING,OH,41.1,-80.65,TREE BRANCHES DOWN... ALSO HAVE PENNY HAIL AND MINOR STREET FLOODING. (CLE)
1925,UNK,DEER LAKE,SCHUYLKILL,PA,40.62,-76.06,911 CENTER REPORTED WIRES AND NUMEROUS LARGE TREES DOWN IN DEER LAKE AND PENN TOWNSHIP. (CTP)
1930,UNK,1 NW MILEY,HAMPTON,SC,32.96,-81.04,LAW ENFORCEMENT REPORTED 1 TREE DOWN ALONG HIGHWAY 601. (CHS)
1930,UNK,4 N TERRA ALTA,PRESTON,WV,39.5,-79.54,TREES DOWN. (PBZ)
1930,UNK,SUNBURY,NORTHUMBERLAND,PA,40.86,-76.79,MULTIPLE TREES DOWN (CTP)
1930,65,BOARDMAN,MAHONING,OH,41.03,-80.67,NICKEL HAIL ALSO REPORTED. (CLE)
1934,UNK,5 NW ROCKEFELLER WILDLI,CAMERON,LA,29.72,-92.82,SHERIFFS DEPT REPORTS TRESS AND POWER LINES DOWN. (LCH)
1935,UNK,GUYTON,EFFINGHAM,GA,32.34,-81.39,TREES DOWN. (CHS)
1940,UNK,8 NW WOMELSDORF,BERKS,PA,40.46,-76.29,WIRES DOWN ON ROUTE 501 (PHI)
1945,UNK,ST. AUGUSTINE,ST. JOHNS,FL,29.89,-81.31,AT CR208 AND PACETTI ROAD...TREES AND POWER LINES DOWN,2 STRUCTURES DAMAGED. NO INJURIES REPORTED. (JAX)
1945,UNK,1 S EAST CONEMAUGH,CAMBRIA,PA,40.33,-78.89,TREES DOWN (CTP)
1955,UNK,SLIDELL,ST. TAMMANY,LA,30.28,-89.78,THREE PINE TREES WERE BLOWN DOWN ON AIRPORT ROAD. (LIX)
2005,UNK,WINTER PARK,ORANGE,FL,28.6,-81.34,50 KNOTS OR BETTER. (MLB)
2009,UNK,10 S LANCASTER,LANCASTER,PA,39.9,-76.3,TREE ON HOUSE ON LAMPETER ROAD IN WEST LAMPETER TWP. (CTP)
2010,UNK,2 ENE LOYSVILLE,PERRY,PA,40.39,-77.29,NUMEROUS LARGE TREES AND DIME SIZE HAIL WERE REPORTED 2.2 MILES ENE OF LOYSVILLE IN ELLIOTSBURG TOWNSHIP. (CTP)
2015,UNK,2 S BISHOPVILLE,LEE,SC,34.19,-80.25,TREES DOWN ALONG HWY 441 JUST SOUTH OF BISHOPVILLE. (CAE)
2020,UNK,SLIPPERY ROCK,BUTLER,PA,41.07,-80.06,TREES DOWN. (PBZ)
2023,61,DULLES INTERNATIONAL AI,LOUDOUN,VA,38.94,-77.46,(LWX)
2025,UNK,3 E STATESBORO,BULLOCH,GA,32.45,-81.73,1 TREE DOWN AT THE INTERSECTION OF FIVE CHOP ROAD AND HIGHWAY 24. (CHS)
2028,UNK,1 NE BEL AIR,HARFORD,MD,39.54,-76.33,TREES DOWN IN THE SOUTH HAMPTON AREA. (LWX)
2030,UNK,4 WSW FLEMINGTON,MARION,FL,29.39,-82.36,COUPLE OF TREES DOWN IN LOCAL MUNICIPAL PARK. TIME IS APPROX. (JAX)
2030,UNK,3 S CARLISLE,CUMBERLAND,PA,40.16,-77.2,TREES DOWN...WIRES DOWN (CTP)
2030,UNK,INDIANA,INDIANA,PA,40.62,-79.16,SEVERAL TREES DOWN. (PBZ)
2045,UNK,3 SE MADISON,BOONE,WV,38.03,-81.76,TREES AND POWER LINES DOWN IN THE TOWN OF UNEEDA ON RT 85 (RLX)
2048,UNK,JARRETTSVILLE,HARFORD,MD,39.6,-76.47,TREES DOWN. (LWX)
2055,UNK,CASHTOWN,ADAMS,PA,39.88,-77.34,TREES DOWN ON WIRES (CTP)
2055,UNK,8 SE ELIZABETHTOWN,LANCASTER,PA,40.07,-76.49,POSSIBLE TORNADO DAMAGE. TREES DOWN,BARN COLLAPSED AND HOUSES DAMAGED BETWEEN MARIETTA AND BAINBRIDGE. (CTP)
2056,UNK,3 N LATROBE,WESTMORELAND,PA,40.36,-79.38,TREES DOWN. (PBZ)
2059,UNK,7 SE METTER,CANDLER,GA,32.33,-81.98,SEVERAL TREES AND POWERLINES REPORTED DOWN ON DECKLE ROAD. (CHS)
2100,UNK,COVINGTON,ST. TAMMANY,LA,30.48,-90.11,A TREE WAS BLOWN DOWN ON A CAR NEAR THE INTERSECTION OF 21ST AND JACKSON STREETS. (LIX)
2101,UNK,APPLE CREEK,WAYNE,OH,40.75,-81.83,TREES DOWN. (CLE)
2110,UNK,ORBISONIA,HUNTINGDON,PA,40.24,-77.89,TREES DOWN NEAR ORBISONIA (CTP)
2110,UNK,HOPEDALE,HARRISON,OH,40.32,-80.9,TREES DOWN ON COUNTY ROAD 51. (PBZ)
2110,UNK,MINERAL CITY,TUSCARAWAS,OH,40.6,-81.36,TREES DOWN NEAR SULLY. (PBZ)
2115,UNK,CHAMBERSBURG,FRANKLIN,PA,39.93,-77.66,TREES ON WIRES...ALSO IN ANTRIM TWP AROUND SAME TIME. (CTP)
2115,UNK,SAXTON,BEDFORD,PA,40.21,-78.25,TREES DOWN (CTP)
2115,UNK,WINDBER,SOMERSET,PA,40.23,-78.83,TREES DOWN (CTP)
2118,UNK,6 SW GETTYSBURG,ADAMS,PA,39.77,-77.31,TREES DOWN IN FREEDOM TWP (CTP)
2120,UNK,2 NE SALTSBURG,INDIANA,PA,40.51,-79.42,TREES DOWN. (PBZ)
2120,UNK,5 NW FOX CHAPEL,ALLEGHENY,PA,40.58,-79.96,TREES DOWN WEST DEER - ROUTE 8 AREA. (PBZ)
2128,UNK,THURMONT,FREDERICK,MD,39.62,-77.41,TREES DOWN (LWX)
2130,UNK,10 SE COLUMBIA,RICHLAND,SC,33.94,-80.76,NUMEROUS TREES DOWN ON OLD CONGAREE RD,AND NEAR BUNKYS STORE. QUARTER INCH HAIL. (CAE)
2130,UNK,3 E AYNOR,HORRY,SC,34,-79.15,LARGE TREE LIMBS DOWN (ILM)
2135,UNK,BERLIN,HOLMES,OH,40.55,-81.81,TREE DOWNED. (CLE)
2140,UNK,ASHLAND,CLARK,KS,37.19,-99.77,NUMEROUS POWER POLES DOWN IN ASHLAND,AS WELL AS EAST AND NORTH OF ASHLAND. (DDC)
2140,UNK,1 W TORONTO,JEFFERSON,OH,40.46,-80.63,TREES DOWN ON ROUTE 7. (PBZ)
2142,UNK,COCKEYSVILLE,BALTIMORE,MD,39.48,-76.63,TREES AND POWER LINES DOWN (LWX)
2145,77,4 E ERICK,BECKHAM,OK,35.21,-99.8,(OUN)
2145,UNK,4 E FREDERICK,FREDERICK,MD,39.43,-77.34,TREES DOWN (LWX)
2145,UNK,4 ENE BENTLEY SPRINGS,BALTIMORE,MD,39.7,-76.6,SEVERAL TREES DOWN AND POWER IS OUT. (LWX)
2150,UNK,EVERETT,BEDFORD,PA,40.01,-78.37,TREES DOWN (CTP)
2156,58,PATRICK AIR FORCE BASE,BREVARD,FL,28.23,-80.61,50 KNOT GUST MEASURED BY OBSERVER AT PATICK AIR FORCE BASE. (MLB)
2157,UNK,ST. CLAIRSVILLE,BELMONT,OH,40.08,-80.9,TREES DOWN. (PBZ)
2200,UNK,4 ESE CONROE,MONTGOMERY,TX,30.3,-95.41,*** 1 INJ *** MULTIPLE TREES AND POWER LINES DOWN ALONG FROM CREIGHTON RD / CONROE-PORTER ROAD TO NEAR FM 3083 NEAR ROCKY RD. FALLEN TREE DAMAGED MOBILE HOME INJURING T (HGX)
2200,UNK,BETHLEHEM,OHIO,WV,40.04,-80.69,TREES DOWN. (PBZ)
2204,UNK,LONG MEADOW,WASHINGTON,MD,39.69,-77.71,TREES DOWN. (LWX)
2205,UNK,COSHOCTON,COSHOCTON,OH,40.26,-81.85,TREES DOWN ON ROUTE 60. (PBZ)
2210,UNK,COLUMBIA,HOWARD,MD,39.2,-76.86,TREE DOWN ON MURRAY HILL AND VOLLMERHAUSEN (LWX)
2215,UNK,UNION MILLS,CARROLL,MD,39.67,-77.03,TREES DOWN ON DEEP RUN ROAD. (LWX)
2220,UNK,HYNDMAN,BEDFORD,PA,39.82,-78.72,TREES DOWN (CTP)
2225,UNK,2 W SHEPHERDSTOWN,JEFFERSON,WV,39.43,-77.84,NUMEROUS TREES DOWN. (LWX)
2230,65,ROCK HARBOR,UPPER KEYS IN MON,FL,25.08,-80.46,A LANDSCAPER AT ROCK HARBOR ESTIMATED A WIND GUSTS OF 65 MPH,MEDIUM SIZED TREE LIMBS DOWN ALONG WITH MARBLE SIZED HAIL. (KEY)
2230,UNK,NORTH KEY LARGO,UPPER KEYS IN MON,FL,25.27,-80.32,AN EMERGENCY MANAGER OFFICIAL CALLED TO REPORT STRONG WINDS KNOCKED DOWN TREES AND POWERLINES ON MARINA DRIVE IN NORTH KEY LARGO AT MILE MARKER 99.5. (KEY)
2230,UNK,DAMASCUS,MONTGOMERY,MD,39.28,-77.21,POWERLINES DOWN. 911 CENTER REPORT. (LWX)
2230,UNK,BERKELEY SPGS,MORGAN,WV,39.63,-78.23,TREES DOWN ON RIVER RUN ROAD. (LWX)
2235,UNK,4 NW UNIONTOWN,FAYETTE,PA,39.94,-79.78,TREES DOWN NEAR REPUBLIC. (PBZ)
2240,UNK,3 NW WAYNESBURG,GREENE,PA,39.93,-80.23,TREE DOWN IN NINEVEH. (PBZ)
2245,UNK,FALLING WATERS,BERKELEY,WV,39.56,-77.89,DOWNED TREES AND WIRES TABERMACLE WAY ALONG POTOMAC ROAD. (LWX)
2245,UNK,2 S RIDGELEY,MINERAL,WV,39.61,-78.77,TREES DOWN. (LWX)
2245,UNK,MILTONSBURG,MONROE,OH,39.83,-81.16,TREE DOWN ONTO CAR (PBZ)
2250,UNK,ZANESVILLE,MUSKINGUM,OH,39.95,-82.01,TREES DOWN. (PBZ)
2250,UNK,1 S MARTINSBURG,KNOX,OH,40.25,-82.35,SEVERAL LIMBS DOWN BLOCKING ROAD. (CLE)
2300,UNK,GRINDSTONE-ROWES RUN,FAYETTE,PA,40.02,-79.82,TREES DOWN. (PBZ)
2300,UNK,NEWARK,LICKING,OH,40.07,-82.42,TREES DOWN (ILN)
2305,UNK,5 N PINE GROVE,WETZEL,WV,39.64,-80.68,SEVERAL TREES DOWN. (PBZ)
2310,UNK,MALTA,MORGAN,OH,39.65,-81.86,TREES DOWN ON CR 100. (RLX)
2312,UNK,CUMBERLAND,ALLEGANY,MD,39.65,-78.76,TREES DOWN. (LWX)
2315,UNK,3 E HUNTSVILLE,WALKER,TX,30.71,-95.5,TREES DOWN (HGX)
2325,UNK,2 N BIG STONE GAP,WISE,VA,36.89,-82.78,FEW TREES DOWN IN APPALACHIA. REPORTED BY SHERIFFS OFFICE. (MRX)
2330,UNK,HUNTSVILLE,WALKER,TX,30.71,-95.55,TWO INDEPENDENT MOBILE HOMES SUSTAINED TREE DAMAGE. ONE MINIMAL. OTHER INDUCED HOLE IN ROOF. (HGX)
2330,UNK,7 E WYTHEVILLE,WYTHE,VA,36.95,-80.96,2 LARGE TREES DOWN NEAR FORT CHISWELL (RNK)
2330,UNK,STRASBURG,SHENANDOAH,VA,38.99,-78.36,TREES DOWN. (LWX)
2330,UNK,5 NW LOGAN,HOCKING,OH,39.59,-82.47,2 TREES DOWN (ILN)
2340,UNK,FRONT ROYAL,WARREN,VA,38.92,-78.18,DOWNED POWER LINE. (LWX)
2340,UNK,RUSHVILLE,FAIRFIELD,OH,39.76,-82.43,TREES DOWN (ILN)
2341,UNK,6 E LINCOLNTON,LINCOLN,NC,35.48,-81.14,WIDESPREAD TREES DOWN CAMP CREEK RD AND HWY 73 (GSP)
2345,UNK,3 S BELLEFONTAINE,LOGAN,OH,40.32,-83.76,TREES DOWN (ILN)
2349,UNK,1 NNE SHORT GAP,MINERAL,WV,39.56,-78.8,TREE DOWN ON ALT 28. (LWX)
2350,UNK,S MOORE HAVEN,GLADES,FL,26.83,-81.1,TREES DOWN JUST SOUTH OF MOORE HAVEN ALONG AZALEA AVE REPORTED BY LAW ENFORCEMENT. (MFL)
2358,UNK,LANCASTER,FAIRFIELD,OH,39.72,-82.6,LARGE LIMBS WERE DOWNED (ILN)
0000,UNK,LINCOLNTON,LINCOLN,NC,35.48,-81.25,TREES DOWN REPORTED BY COUNTY OFFICIALS (GSP)
0000,UNK,TAZEWELL,CLAIBORNE,TN,36.46,-83.58,TREES DOWN IN SPEEDWELL,TAZWELL,AND NEW TAZWELL. REPORTED BY 911 DISPATCHER. (MRX)
0010,UNK,PULLMAN,RITCHIE,WV,39.19,-80.95,TREES DOWN AT PULLMAN ON CR 9. TREES DOWN AT HOLBROOK ON CR 9/12. TREES DOWN AT BEREA ON SR 74. (RLX)
0025,UNK,5 ENE WALTON,ROANE,WV,38.66,-81.31,TREES DOWN AT LOONEYVILLE ON FLAT FORK ROAD. (RLX)
0030,UNK,10 NNW POMEROY,MEIGS,OH,39.16,-82.1,TREES DOWN ON SR 681. TREES DOWN ON RT 124 WEST OF RUTLAND. 1/2 INCH HAIL 2E OF POMEROY. (RLX)
0110,UNK,CANTON,BLAINE,OK,36.06,-98.59,SEVERAL TREES DOWN OVER THE ROADWAY REPORTED SOUTH OF CANTON. (OUN)
0110,UNK,RIO GRANDE,GALLIA,OH,38.88,-82.38,TREES DOWN AT RIO GRANDE ON CHERRY RIDGE ROAD. TREES DOWN AT CHESHIRE ON SR 554. (RLX)
0130,UNK,2 SE WILMINGTON,CLINTON,OH,39.42,-83.8,A POWER POLE WAS SNAPPED WITH GUST FRONT. (ILN)
0136,UNK,PORTSMOUTH,SCIOTO,OH,38.76,-82.95,TREES DOWN ACROSS MUCH OF THE EASTERN PART OF THE COUNTY. (ILN)
0145,60,1 SSW ORIENTA,MAJOR,OK,36.35,-98.48,(OUN)
0220,UNK,SPRING CITY,RHEA,TN,35.69,-84.86,FEW TREES DOWN ACROSS THE NORTH HALF OF THE COUNTY. REPORTED BY SHERIFFS OFFICE. (MRX)
0240,UNK,DAYTON,RHEA,TN,35.49,-85.01,FEW TREES AND POWER LINES DOWN IN DAYTON. REPORTED BY SHERIFFS OFFICE. (MRX)
0415,UNK,EAKLY,CADDO,OK,35.31,-98.56,SEVERAL TWO INCH TREE LIMBS DOWNED DUE TO HIGH WINDS. (OUN)
Time,Size,Location,County,State,Lat,Lon,Comments
1600,75,10 W PENNEY FARMS,CLAY,FL,29.98,-81.98,CAMP BLANDING (JAX)
1636,75,JAMES ISLAND,CHARLESTON,SC,32.73,-79.93,NEAR THE CORNER OF FOLLY RD AND HARBORVIEW RD. (CHS)
1655,75,3 SE APEX,WAKE,NC,35.7,-78.81,PENNY SIZE HAIL AT KNIGHTSPLAY GOLF COURSE. (RAH)
1656,88,CHARLESTON,CHARLESTON,SC,32.78,-79.94,(CHS)
1715,100,EDISTO ISLAND,CHARLESTON,SC,32.56,-80.28,(CHS)
1720,75,1 E JORDAN LAKE,CHATHAM,NC,35.74,-79.02,PENNY SIZE HAIL REPORTED NEAR NEW HOPE CHURCH RD AND YATES STORE RD IN CHATHAM COUNTY. (RAH)
1725,100,5 SE CALLAHAN,NASSAU,FL,30.51,-81.77,1 INCH HAIL REPORTED BY TRAINED SPOTTER IN DINSMORE AND RATLIFF ROAD AREA. (JAX)
1740,100,FOLKSTON,CHARLTON,GA,30.84,-82.01,NICKEL AND QUARTER SIZE HAIL FALLING IN FOLKSTON. (JAX)
1745,100,1 N NORMANDY,DUVAL,FL,30.32,-81.76,1 INCH HAIL REPORTED AT INTERSTATE 295 AND COMMONWEALTH AVENUE. (JAX)
1747,100,BEAUFORT,BEAUFORT,SC,32.43,-80.67,DOWNTOWN BEAUFORT AT THE EOC. (CHS)
1750,175,2 N LADSON,BERKELEY,SC,33.01,-80.11,NEARLY GOLF BALL SIZE HAIL AND SMALL LIMBS DOWN. (CHS)
1750,75,WOODCOCK,CRAWFORD,PA,41.75,-80.08,(CLE)
1755,125,LADSON,CHARLESTON,SC,32.99,-80.11,COLLEGE PARK ROAD. (CHS)
1755,100,SUMMERVILLE,DORCHESTER,SC,33.02,-80.18,(CHS)
1757,75,ST. MARYS,ELK,PA,41.43,-78.56,(CTP)
1758,88,2 SW LILLINGTON,HARNETT,NC,35.38,-78.84,(RAH)
1800,75,6 E SANDERSON,BAKER,FL,30.25,-82.17,WIND GUSTS ESTIMATED AT 50 MPH. 2.6 INCHES OF RAIN. (JAX)
1800,100,GREENBELT,PRINCE GEORGES,MD,38.99,-76.89,DIME TO QUARTER SIZED HAIL REPORTED AT NASA. (LWX)
1805,100,3 SW NORMANDY,DUVAL,FL,30.27,-81.8,HAIL UP TO ONE INCH OVER HERLONG AIRPORT ON THE WEST SIDE OF JACKSONVILLE. (JAX)
1810,88,2 NNW MUNCY,LYCOMING,PA,41.23,-76.8,NICKEL SIZE HAIL AND 35 MPH WINDS REPORTED IN PENNSDALE 2.9 MILES NNW OF MUNCY. (CTP)
1815,75,2 NE DENTSVILLE,RICHLAND,SC,34.1,-80.93,PUBLIC REPORT FROM SPRING VALLEY OF PENNY SIZE HAIL (CAE)
1830,88,NORMANDY,DUVAL,FL,30.31,-81.76,(JAX)
1830,75,1 NW OAK GROVE,DILLON,SC,34.36,-79.56,HAIL REPORTED ON HIGHWAY 38. (ILM)
1830,75,10 N YOUNGSVILLE,WARREN,PA,42,-79.32,LIMBS DOWN. 0.68 INCHES OF RAIN. TEMPERATURE DROPPED FROM 84 DEGREES TO 54 DEGREES. (CTP)
1835,88,4 NE MONCKS CORNER,BERKELEY,SC,33.24,-79.96,OBSERVED IN THE COMMUNITY OF MACEDONIA. (CHS)
1843,75,1 NNE EASTOVER,CUMBERLAND,NC,35.11,-78.78,PENNY SIZE HAIL REPORTED JUST NNE OF EASTOVER. (RAH)
1844,100,11 SW CAMDEN,KERSHAW,SC,34.14,-80.73,SC HIGHWAY PATROL REPORTED QUARTER SIZED HAIL ON INTERSTATE 20 SW OF LUGOFF. (CAE)
1845,75,ELGIN,LANCASTER,SC,34.67,-80.72,(CAE)
1855,88,SILVER SPRING,MONTGOMERY,MD,39,-77.05,REPORTED AT US 29 AND UNIVERSITY BLVD. (LWX)
1855,75,BLOOMSBURG,COLUMBIA,PA,41,-76.46,(CTP)
1857,88,SHARON,MERCER,PA,41.23,-80.5,NICKEL SIZE HAIL ON THE WEST SIDE OF SHARON. (PBZ)
1901,75,1 SW HOPE MILLS,CUMBERLAND,NC,34.96,-78.97,PENNY SIZE HAIL REPORTED NEAR HOPE MILLS GOLF COURSE. (RAH)
1905,75,3 N BUCHANAN,BOTETOURT,VA,37.56,-79.68,(RNK)
1907,75,HUBBARD,TRUMBULL,OH,41.16,-80.57,(CLE)
1910,75,3 NW AYNOR,HORRY,SC,34.03,-79.24,HAIL OCCURRED ON HIGHWAY 23. (ILM)
1910,88,6 NW BENNETTSVILLE,MARLBORO,SC,34.69,-79.76,HAIL REPORTED ON HIGHWAY 79. (ILM)
1915,175,FLORIS,BEAVER,OK,36.87,-100.7,(AMA)
1918,100,1 S YOUNGSTOWN,MAHONING,OH,41.08,-80.65,(CLE)
1920,100,2 N PAMPLICO,FLORENCE,SC,34.02,-79.57,NICKLE TO QUARTER SIZE HAIL IN THE GIBBS CROSSROADS AREA. (ILM)
1920,100,LUMBERTON,ROBESON,NC,34.63,-79.01,HAIL THE SIZE OF LARGE PECANS FELL ON 5TH STREET. (ILM)
1920,75,BETHESDA,MONTGOMERY,MD,38.99,-77.12,NEAR ROUTE 29 (LWX)
1920,75,SANDY RIDGE,CENTRE,PA,40.8,-78.21,(CTP)
1923,75,1 S MOSCOW,STEVENS,KS,37.31,-101.21,(DDC)
1926,75,2 NE MOSELLE,COLLETON,SC,32.99,-80.99,SPOTTER REPORTED PENNY SIZE HAIL. (CHS)
1930,75,2 W RAINS,MARION,SC,34.1,-79.36,HAIL OCCURRED ON HIGHWAY 41. (ILM)
1930,100,5 SSW SHATTUCK,ELLIS,OK,36.21,-99.92,(OUN)
1930,100,4 W SLAPOUT,BEAVER,OK,36.62,-100.19,(AMA)
1945,75,FAIRCHANCE,FAYETTE,PA,39.83,-79.75,(PBZ)
1946,75,MOUNT PLEASANT,CHARLESTON,SC,32.79,-79.86,PENNY SIZE HAIL FELL FOR 6 MINUTES AT THE RIVERTOWNE COUNTRY CLUB. (CHS)
1950,75,ASH,BRUNSWICK,NC,34.07,-78.52,(ILM)
1950,100,2 SE HARTSVILLE,DARLINGTON,SC,34.35,-80.06,NICKLE TO QUARTER SIZED HAIL AT INTERSECTION OF SC151 AND US15 AND EST 50 MPH GUSTS (ILM)
1950,400,SLAPOUT,BEAVER,OK,36.62,-100.12,THUNDER...LIGHTENING...AND 4.00 INCH HAIL REPORTED EAST OF SLAPOUT (AMA)
1950,88,RESTON,FAIRFAX,VA,38.95,-77.35,(LWX)
1955,88,CASSELBERRY,SEMINOLE,FL,28.66,-81.32,TRAINED NWS SPOTTER (MLB)
1955,75,SLIDELL,ST. TAMMANY,LA,30.28,-89.78,PEA TO MARBLE AND OCCASIONALLY PENNY SIZE HAIL FELL FOR APRROXIMATELY 5 MINUTES AT THE NATIONAL WEATHER SERVICE OFFICE IN SLIDELL. (LIX)
2000,88,SALEM,COLUMBIANA,OH,40.9,-80.85,(PBZ)
2001,100,CASSELBERRY,SEMINOLE,FL,28.66,-81.32,LAKE CATHERNE ESTATES (MLB)
2003,75,2 SSE ASHLEY HEIGHTS,HOKE,NC,35.07,-79.37,PENNY SIZE HAIL REPORTED NEAR MCCAIN ON NC HWY 211. (RAH)
2004,88,KNOTTSVILLE,TAYLOR,WV,39.33,-79.97,(RLX)
2005,88,WINTER PARK,ORANGE,FL,28.6,-81.34,426 AND ALOMA (MLB)
2005,88,2 NE FORGAN,BEAVER,OK,36.93,-100.51,(AMA)
2005,88,5 S MILLERSTOWN,PERRY,PA,40.48,-77.15,HAIL OBSERVED ON ROUTE 322. (CTP)
2007,100,RESTON,FAIRFAX,VA,38.95,-77.35,(LWX)
2009,175,14 NNE HUGOTON,STEVENS,KS,37.36,-101.25,BROKE WINDOW IN HOUSE (DDC)
2009,75,LANCASTER,LANCASTER,PA,40.04,-76.3,HAIL FELL BETWEEN 354 AND 409 PM (CTP)
2010,150,5 ESE SLAPOUT,BEAVER,OK,36.59,-100.04,PING PONG SIZE HAIL (AMA)
2011,88,JONESTOWN,LEBANON,PA,40.41,-76.48,HAIL FELL BETWEEN 356 AND 411 PM (CTP)
2013,75,1 SSW ORIENTA,MAJOR,OK,36.35,-98.48,(OUN)
2013,175,5 N SYRACUSE,HAMILTON,KS,38.05,-101.75,JUST A FEW HAILSTONES. (DDC)
2015,175,ORLANDO INTERNATIONAL A,ORANGE,FL,28.43,-81.32,AIRLINE FLIGHT OPERATIONS REPORTED 1 INCH TO GOLFBALL (MLB)
2015,100,1 W MCINTOSH,MARION,FL,29.45,-82.24,AT INTERSECTION OF HIGHWAYS 329 AND 198. (JAX)
2015,75,HERSHEY,DAUPHIN,PA,40.28,-76.65,(CTP)
2018,75,8 N SHATTUCK,ELLIS,OK,36.39,-99.88,(OUN)
2020,88,EVERGREEN,COLUMBUS,NC,34.42,-78.9,HAIL WAS REPORTED AS FLAT SHAPED. (ILM)
2020,100,12 SW ASHEBORO,RANDOLPH,NC,35.6,-79.96,ON HIGHWAY 49. (RAH)
2020,75,13 SE ULYSSES,GRANT,KS,37.45,-101.19,(DDC)
2024,75,3 ESE MEADE STATE PARK,MEADE,KS,37.16,-100.36,(DDC)
2024,75,HARRISBURG,DAUPHIN,PA,40.28,-76.88,HAIL BETWEEN 409 AND 424 PM. (CTP)
2029,100,8 WSW LISBON,COLUMBIANA,OH,40.73,-80.91,EAST ROCHESTER. (PBZ)
2030,100,SEILING,DEWEY,OK,36.15,-98.92,RELAYED BY THE NSSL SHAVE PROJECT. (OUN)
2035,75,KILN,HANCOCK,MS,30.42,-89.43,HAIL RANGING IN SIZE FROM PEA TO SLIGHTLY LARGER THAN A PENNY WAS OBSERVED. (LIX)
2035,88,5 ESE LYMAN,HARRISON,MS,30.47,-89.05,DIME TO NICKEL SIZE HAIL WAS OBSERVED AT THE WOOLMARKET EXIT ON INTERSTATE 10. (LIX)
2037,75,ELIZABETHTOWN,LANCASTER,PA,40.15,-76.6,FELL BETWEEN 422 AND 437 PM (CTP)
2044,88,5 N CARROLLTON,CARROLL,OH,40.65,-81.09,(PBZ)
2045,150,NE ASHLAND,CLARK,KS,37.19,-99.77,(DDC)
2052,88,YORK HAVEN,YORK,PA,40.11,-76.72,BETWEEN 437 AND 452 PM. (CTP)
2055,75,1 W BUNNELL,FLAGLER,FL,29.47,-81.28,(JAX)
2055,100,MONTEZUMA,GRAY,KS,37.6,-100.44,(DDC)
2100,75,8 N SHATTUCK,ELLIS,OK,36.39,-99.88,(OUN)
2100,75,7 ESE ROCK CAVE,UPSHUR,WV,38.8,-80.22,HAIL FELL IN THE CITY OF ALEXANDER (RLX)
2105,175,2 NW DOWNTOWN MIAMI,MIAMI-DADE,FL,25.79,-80.22,OCCURRED IN THE ALLAPATTAH AREA (MFL)
2105,88,E JOHNSTOWN,CAMBRIA,PA,40.33,-78.92,TELEVISION WEATHERMAN REPORTED HAIL AT STATION IN RICHLAND TWP. AT JCT OF RTE 219/SR 256. (CTP)
2111,75,WEBSTER,TAYLOR,WV,39.33,-80.06,(RLX)
2115,150,3 N ORANGEFIELD,ORANGE,TX,30.12,-93.86,REPORTED BY TRUCKER ON FM 1442. (LCH)
2115,175,HAWKINS,WOOD,TX,32.59,-95.2,GOLFBALL SIZE HAIL AND SOME TREES DOWN IN HAWKINS. (SHV)
2115,175,1 SW VINSON,HARMON,OK,34.89,-99.88,(OUN)
2115,88,4 NNE CAMP HOUSTON,WOODS,OK,36.87,-99.09,(OUN)
2115,75,5 E HUGOTON,STEVENS,KS,37.18,-101.26,(DDC)
2115,100,12 S RUSSELL SPRINGS,LOGAN,KS,38.74,-101.18,(GLD)
2115,75,WILMOT,STARK,OH,40.66,-81.64,A FEW QUARTER SIZE HAIL MIXED IN. (CLE)
2115,75,LUCAS,RICHLAND,OH,40.7,-82.42,(CLE)
2120,88,SLAPOUT,BEAVER,OK,36.62,-100.12,THUNDER AND LIGHTENING WITH NICKEL SIZE HAIL (AMA)
2120,88,2 NW OAKMONT,ALLEGHENY,PA,40.54,-79.86,HARMARVILLE. (PBZ)
2124,88,5 E FORGAN,BEAVER,OK,36.91,-100.45,(AMA)
2125,75,9 N INGALLS,GRAY,KS,37.96,-100.45,HAILED FOR 5-10 MINUTES. (DDC)
2128,100,9 NNW GAGE,ELLIS,OK,36.44,-99.82,(OUN)
2128,75,LATROBE,WESTMORELAND,PA,40.31,-79.38,(PBZ)
2130,100,12 SW RUSSELL SPRINGS,LOGAN,KS,38.79,-101.33,(GLD)
2137,75,5 NE CANONSBURG,WASHINGTON,PA,40.31,-80.12,PETERS TWP. (PBZ)
2139,100,1 E RED SPRINGS,BAYLOR,TX,33.62,-99.4,(OUN)
2140,88,OWINGS MILLS,BALTIMORE,MD,39.41,-76.79,(LWX)
2140,75,3 WNW LEXINGTON,MORROW,OH,40.69,-82.65,(CLE)
2145,75,7 W CHILLICOTHE,HARDEMAN,TX,34.26,-99.64,REPORTED AT ROADSIDE PARK AND US HWY 287 (OUN)
2147,75,4 WNW SPENCER,ROWAN,NC,35.72,-80.5,(GSP)
2147,150,NORTH VERSAILLES,ALLEGHENY,PA,40.38,-79.81,(PBZ)
2150,75,2 NE BREEZEWOOD,BEDFORD,PA,40.01,-78.21,(CTP)
2153,75,9 NW LIBERAL,SEWARD,KS,37.14,-101.05,(DDC)
2155,88,N CANADA,PIKE,KY,37.61,-82.32,NICKEL SIZED HAIL IN CANADA (JKL)
2155,75,7 W HARRISSONVILLE,FULTON,PA,39.97,-78.19,(CTP)
2203,88,13 NW SUBLETTE,HASKELL,KS,37.61,-101.01,(DDC)
2207,75,8 W HALIFAX,HALIFAX,VA,36.77,-79.08,NEAR VERNON HILL (RNK)
2210,75,8 E WOODS,SEWARD,KS,37.17,-100.95,(DDC)
2213,100,MAY,HARPER,OK,36.62,-99.75,NICKEL TO QUARTER SIZE HAIL RELAYED BY WOODWARD COUNTY EM. (OUN)
2215,75,2 NE SPERRYVILLE,RAPPAHANNOCK,VA,38.69,-78.22,(LWX)
2215,100,12 S RUSSELL SPRINGS,LOGAN,KS,38.74,-101.18,(GLD)
2220,75,5 S RAINSBURG,BEDFORD,PA,39.82,-78.52,REPORTED BY FIRE POLICE IN CHEYNESVILLE (CTP)
2226,75,12 ESE BUTTERMILK,COMANCHE,KS,37.04,-99.14,(DDC)
2235,75,16 SE WAYNOKA,WOODS,OK,36.42,-98.68,(OUN)
2240,75,1 NE CUMBERLAND,ALLEGANY,MD,39.66,-78.75,(LWX)
2242,175,4 W SWEETWATER,BECKHAM,OK,35.42,-99.99,(OUN)
2242,175,4 WNW SWEETWATER,ROGER MILLS,OK,35.44,-99.99,(OUN)
2255,75,UTICA,NESS,KS,38.64,-100.17,(DDC)
2300,100,HIGGINS,LIPSCOMB,TX,36.12,-100.03,(AMA)
2300,88,11 N WOODWARD,WOODWARD,OK,36.59,-99.39,(OUN)
2300,75,9 NE CATESBY,ELLIS,OK,36.59,-99.85,(OUN)
2302,75,BERRYVILLE,CLARKE,VA,39.15,-77.98,(LWX)
2325,88,9 NNW GAGE,ELLIS,OK,36.44,-99.82,(OUN)
2330,150,CARTER,BECKHAM,OK,35.22,-99.5,(OUN)
2332,88,MAX MEADOWS,WYTHE,VA,36.97,-80.93,(RNK)
2345,75,2 N MARTINSVILLE AIRPOR,HENRY,VA,36.66,-80.02,(RNK)
2347,88,TAZEWELL,CLAIBORNE,TN,36.46,-83.58,NICKEL HAIL AT HWY 33 AND MAIN ST. REPORTED BY SPOTTER. (MRX)
2349,75,SUGAR GROVE,FAIRFIELD,OH,39.63,-82.55,(ILN)
2353,100,4 NNE ARNOLDSBURG,CALHOUN,WV,38.84,-81.1,QUARTER SIZE HAIL IN SAND RIDGE. (RLX)
2354,75,ELLENBORO,RITCHIE,WV,39.27,-81.06,PENNY SIZE HAIL IN ELLENSBORO. (RLX)
0010,75,WEST LIBERTY,LOGAN,OH,40.25,-83.75,(ILN)
0015,100,4 ENE BESSIE,WASHITA,OK,35.41,-98.92,WHEAT FIELDS TOTALED BY HAIL JUST EAST AND NORTHEAST OF BESSIE. (OUN)
0015,75,MINERALWELLS,WOOD,WV,39.18,-81.51,(RLX)
0030,75,5 E CLINTON,CUSTER,OK,35.51,-98.88,(OUN)
0034,88,5 E LANDRUM,SPARTANBURG,SC,35.17,-82.1,(GSP)
0055,75,1 S SEILING,DEWEY,OK,36.14,-98.92,(OUN)
0118,100,2 E CANTON,BLAINE,OK,36.06,-98.55,(OUN)
0148,88,7 N MILTON,MASON,WV,38.54,-82.14,NICKEL SIZE HAIL IN MT OLIVE. (RLX)
0225,75,7 NNE DECATUR,MEIGS,TN,35.62,-84.74,PENNY HAIL NEAR WATTS BAR DAM. REPORTED BY SHERIFFS DISPATCHER. (MRX)
0428,100,HOBART,KIOWA,OK,35.03,-99.09,(OUN)
0445,88,HOBART,KIOWA,OK,35.03,-99.09,(OUN)
0600,100,SENTINEL,WASHITA,OK,35.16,-99.17,(OUN)
